[
    {
       "model": "dataapi.spot",
       "pk": 1,
       "fields": {
           "name": "Strandhill",
           "latitude": 54.272045,
           "longitude": -8.616457,
           "description": "A sandy bottom, beginner to medium difficulty",
           "region": "Co. Sligo",
           "country": "Ireland"
        }
    },
    {
       "model": "dataapi.spot",
       "pk": 2,
       "fields": {
           "name": "Batu Bolong (Old man's)",
           "latitude": -8.660026,
           "longitude": 115.129465,
           "description": "Consistent break, part sandy part reef; beginner to medium difficulty",
           "region": "Bali",
           "country": "Indonesia"
        }
    },
    {
       "model": "dataapi.spot",
       "pk": 3,
       "fields": {
           "name": "Nazaré",
           "latitude": 39.597630,
           "longitude": -9.087752,
           "description": "So big I could shit myself just thinking about it.",
           "region": "Nazaré",
           "country": "Portugal"
        }
    },
    {
       "model": "dataapi.spot",
       "pk": 4,
       "fields": {
           "name": "Imperial Beach",
           "latitude": 32.568168, 
           "longitude": -117.135932,
           "description": "Breaks over sand. Prevailing easterly wind.",
           "region": "San Diego",
           "country": "USA"
        }
    },
    {
        "model": "dataapi.spot",
        "pk": 5,
        "fields": {
            "name": "Coronado Beach",
            "latitude": 32.682454,
            "longitude": -117.192490,
            "description": "Breaks over sand.",
            "region": "San Diego",
            "country": "USA"
         }
     },
     {
        "model": "dataapi.spot",
        "pk": 6,
        "fields": {
            "name": "Kirra",
            "latitude": -28.163064, 
            "longitude": 153.527701,
            "description": "Point Break right. Breaks over sand.",
            "region": "Gold Coast",
            "country": "Australia"
         }
     }
]
